[
  {
    "name": "罗泾镇宝丰村11号",
    "type": "小区",
    "lon": 121.355802,
    "lat": 31.474138
  },
  {
    "name": "罗泾镇新陆村",
    "type": "小区",
    "lon": 121.325606,
    "lat": 31.498776
  },
  {
    "name": "罗店镇毛家弄",
    "type": "小区",
    "lon": 121.381601,
    "lat": 31.429884
  },
  {
    "name": "罗南镇",
    "type": "小区",
    "lon": 121.3609,
    "lat": 31.392638
  },
  {
    "name": "宝山泰和路717弄",
    "type": "小区",
    "lon": 121.47959,
    "lat": 31.374614
  },
  {
    "name": "海滨新村",
    "type": "小区",
    "lon": 121.488212,
    "lat": 31.38052
  },
  {
    "name": "富锦路1815弄",
    "type": "小区",
    "lon": 121.430898,
    "lat": 31.406159
  },
  {
    "name": "宝安公路161号",
    "type": "小区",
    "lon": 121.422101,
    "lat": 31.373246
  },
  {
    "name": "菊泉新村18号",
    "type": "小区",
    "lon": 121.425601,
    "lat": 31.373942
  },
  {
    "name": "呼兰路201弄",
    "type": "小区",
    "lon": 121.449508,
    "lat": 31.353834
  },
  {
    "name": "大康路635号",
    "type": "小区",
    "lon": 121.422103,
    "lat": 31.320971
  },
  {
    "name": "庙行镇康家宅村李家楼中曹44号",
    "type": "小区",
    "lon": 121.425033,
    "lat": 31.323083
  },
  {
    "name": "共康五村",
    "type": "小区",
    "lon": 121.431999,
    "lat": 31.323806
  },
  {
    "name": "共和新路4739弄",
    "type": "小区",
    "lon": 121.442306,
    "lat": 31.323736
  },
  {
    "name": "共和新路4703弄",
    "type": "小区",
    "lon": 121.446099,
    "lat": 31.319994
  },
  {
    "name": "岭南路1010号",
    "type": "小区",
    "lon": 121.448105,
    "lat": 31.321906
  },
  {
    "name": "三门路555弄",
    "type": "小区",
    "lon": 121.484697,
    "lat": 31.314555
  },
  {
    "name": "殷高路40弄",
    "type": "小区",
    "lon": 121.48639,
    "lat": 31.322356
  },
  {
    "name": "国权北路380弄",
    "type": "小区",
    "lon": 121.49035,
    "lat": 31.320029
  },
  {
    "name": "逸仙路1321弄",
    "type": "小区",
    "lon": 121.483384,
    "lat": 31.318028
  },
  {
    "name": "国权北路815弄",
    "type": "小区",
    "lon": 121.491698,
    "lat": 31.329661
  },
  {
    "name": "何家湾路2-3号",
    "type": "小区",
    "lon": 121.491593,
    "lat": 31.330409
  },
  {
    "name": "长江路860弄",
    "type": "小区",
    "lon": 121.479355,
    "lat": 31.348883
  },
  {
    "name": "高境镇江杨村",
    "type": "小区",
    "lon": 121.471797,
    "lat": 31.325172
  },
  {
    "name": "逸仙路3233弄",
    "type": "小区",
    "lon": 121.497997,
    "lat": 31.345993
  },
  {
    "name": "军工路5018号",
    "type": "小区",
    "lon": 121.499491,
    "lat": 31.349943
  },
  {
    "name": "菊泉新村",
    "type": "小区",
    "lon": 121.371908,
    "lat": 31.361278   },
  {
    "name": "菊泉街400弄",
    "type": "小区",
    "lon": 121.369549,
    "lat": 31.355586
  },
  {
    "name": "沪太路2018弄",
    "type": "小区",
    "lon": 121.410402,
    "lat": 31.298157
  },
  {
    "name": "牡丹村",
    "type": "小区",
    "lon": 121.188602,
    "lat": 30.880165
  },
  {
    "name": "石化十二村",
    "type": "小区",
    "lon": 121.342906,
    "lat": 30.712317
  },
  {
    "name": "阮巷小区",
    "type": "小区",
    "lon": 121.370602,
    "lat": 30.820074
  },
  {
    "name": "华亭镇联三村金家宅",
    "type": "小区",
    "lon": 121.300703,
    "lat": 31.467821
  },
  {
    "name": "娄塘镇泾河村",
    "type": "小区",
    "lon": 121.227205,
    "lat": 31.396483
  },
  {
    "name": "塔城路490弄",
    "type": "小区",
    "lon": 121.240199,
    "lat": 31.379469
  },
  {
    "name": "塔城路685",
    "type": "小区",
    "lon": 121.2357,
    "lat": 31.375087
  },
  {
    "name": "塔城路666弄",
    "type": "小区",
    "lon": 121.235804,
    "lat": 31.375728
  },
  {
    "name": "塔城路850弄",
    "type": "小区",
    "lon": 121.233599,
    "lat": 31.374308
  },
  {
    "name": "双河路437弄",
    "type": "小区",
    "lon": 121.372321,
    "lat": 31.260571
  },
  {
    "name": "江桥镇丰庄村",
    "type": "小区",
    "lon": 121.354205,
    "lat": 31.246929
  },
  {
    "name": "江桥镇幸福村",
    "type": "小区",
    "lon": 121.332247,
    "lat": 31.251517
  },
  {
    "name": "江桥镇新华村",
    "type": "小区",
    "lon": 121.331606,
    "lat": 31.252391
  },
  {
    "name": "爱特路332弄",
    "type": "小区",
    "lon": 121.308108,
    "lat": 31.234804
  },
  {
    "name": "江桥二村",
    "type": "小区",
    "lon": 121.342507,
    "lat": 31.257272
  },
  {
    "name": "真新新村丰庄3队",
    "type": "小区",
    "lon": 121.354205,
    "lat": 31.246929
  },
  {
    "name": "江桥镇五四村",
    "type": "小区",
    "lon": 121.318605,
    "lat": 31.248111
  },
  {
    "name": "临夏路黄家花园",
    "type": "小区",
    "lon": 121.319907,
    "lat": 31.261262
  },
  {
    "name": "吴杨东路333弄",
    "type": "小区",
    "lon": 121.298906,
    "lat": 31.274567
  },
  {
    "name": "南翔镇南华路101弄",
    "type": "小区",
    "lon": 121.304005,
    "lat": 31.289897
  },
  {
    "name": "民主街500弄",
    "type": "小区",
    "lon": 121.299269,
    "lat": 31.289161
  },
  {
    "name": "南翔镇红翔村",
    "type": "小区",
    "lon": 121.298423,
    "lat": 31.286553
  },
  {
    "name": "火车站路185弄",
    "type": "小区",
    "lon": 121.303098,
    "lat": 31.28572
  },
  {
    "name": "黄渡镇联群村",
    "type": "小区",
    "lon": 121.237798,
    "lat": 31.275917
  },
  {
    "name": "黄渡镇黄沈村",
    "type": "小区",
    "lon": 121.218005,
    "lat": 31.279488
  },
  {
    "name": "南苑二村",
    "type": "小区",
    "lon": 121.241767,
    "lat": 31.374431
  },
  {
    "name": "高昌路105弄",
    "type": "小区",
    "lon": 121.238802,
    "lat": 31.374507
  },
  {
    "name": "庙镇人民医院",
    "type": "小区",
    "lon": 121.344166,
    "lat": 31.717499
  },
  {
    "name": "堡镇镇玉屏新村",
    "type": "小区",
    "lon": 121.60805,
    "lat": 31.534999
  },
  {
    "name": "陈家镇 前哨农场",
    "type": "小区",
    "lon": 121.818047,
    "lat": 31.509718
  },
  {
    "name": "陈家镇陈南村",
    "type": "小区",
    "lon": 121.784715,
    "lat": 31.486943
  },
  {
    "name": "向化镇渔民村",
    "type": "小区",
    "lon": 121.737775,
    "lat": 31.551942
  },
  {
    "name": "长兴岛先进村",
    "type": "小区",
    "lon": 121.688606,
    "lat": 31.394441
  },
  {
    "name": "东平镇长江二村",
    "type": "小区",
    "lon": 121.53277,
    "lat": 31.677495
  },
  {
    "name": "东平镇仪表北村",
    "type": "小区",
    "lon": 121.534993,
    "lat": 31.674436
  },
  {
    "name": "城桥镇湾南村",
    "type": "小区",
    "lon": 121.366666,
    "lat": 31.661386
  },
  {
    "name": "竖新镇竖新北路附近居民",
    "type": "小区",
    "lon": 121.587214,
    "lat": 31.609435
  },
  {
    "name": "堡镇镇向阳新村",
    "type": "小区",
    "lon": 121.609719,
    "lat": 31.538605
  },
  {
    "name": "宏伟路33弄",
    "type": "小区",
    "lon": 121.453008,
    "lat": 30.916078
  },
  {
    "name": "金汇镇百曲村",
    "type": "小区",
    "lon": 121.537294,
    "lat": 30.967605
  },
  {
    "name": "金汇镇金星村",
    "type": "小区",
    "lon": 121.515388,
    "lat": 30.990102
  },
  {
    "name": "南桥路688号",
    "type": "小区",
    "lon": 121.451898,
    "lat": 30.922103
  },
  {
    "name": "肖塘镇肖塘村",
    "type": "小区",
    "lon": 121.428407,
    "lat": 30.959647
  },
  {
    "name": "乐康苑",
    "type": "小区",
    "lon": 121.437307,
    "lat": 30.948005
  },
  {
    "name": "运河路478弄",
    "type": "小区",
    "lon": 121.457307,
    "lat": 30.922942
  },
  {
    "name": "正环路669弄",
    "type": "小区",
    "lon": 121.471389,
    "lat": 30.914644
  },
  {
    "name": "北松公路5178弄",
    "type": "小区",
    "lon": 121.314206,
    "lat": 31.015207
  },
  {
    "name": "车墩镇打铁桥村",
    "type": "小区",
    "lon": 121.254199,
    "lat": 30.977052
  },
  {
    "name": "车墩镇高桥村",
    "type": "小区",
    "lon": 121.310008,
    "lat": 31.021002
  },
  {
    "name": "车墩镇联民村",
    "type": "小区",
    "lon": 121.241503,
    "lat": 30.9901
  },
  {
    "name": "文诚路2159弄",
    "type": "小区",
    "lon": 121.182608,
    "lat": 31.026901
  },
  {
    "name": "泗陈公路518弄",
    "type": "小区",
    "lon": 121.213904,
    "lat": 31.1145
  },
  {
    "name": "上海砖桥贸易城",
    "type": "小区",
    "lon": 121.264006,
    "lat": 31.088007
  },
  {
    "name": "长兴路709弄",
    "type": "小区",
    "lon": 121.263806,
    "lat": 31.083308
  },
  {
    "name": "明中路1177弄",
    "type": "小区",
    "lon": 121.332298,
    "lat": 31.078805
  },
  {
    "name": "虬长路17弄",
    "type": "小区",
    "lon": 121.308904,
    "lat": 31.017302
  },
  {
    "name": "九亭镇金吴村",
    "type": "小区",
    "lon": 121.315802,
    "lat": 31.127158
  },
  {
    "name": "济众路126号",
    "type": "小区",
    "lon": 121.324998,
    "lat": 30.946508
  },
  {
    "name": "荣乐东路1515弄",
    "type": "小区",
    "lon": 121.262608,
    "lat": 31.020503
  },
  {
    "name": "荣乐中路390号民乐小区",
    "type": "小区",
    "lon": 121.218398,
    "lat": 30.020806
  },
  {
    "name": "环城路环城新村",
    "type": "小区",
    "lon": 121.248206,
    "lat": 30.014102
  },
  {
    "name": "谷阳北路1251号",
    "type": "小区",
    "lon": 121.229401,
    "lat": 31.028204
  },
  {
    "name": "马明路168号",
    "type": "小区",
    "lon": 121.286107,
    "lat": 31.072472
  },
  {
    "name": "车墩镇南门村",
    "type": "小区",
    "lon": 121.249407,
    "lat": 30.999403
  },
  {
    "name": "新凯路66号",
    "type": "小区",
    "lon": 121.306,
    "lat": 31.07579
  },
  {
    "name": "车墩庵前小区",
    "type": "小区",
    "lon": 121.306104,
    "lat": 31.019202
  },
  {
    "name": "新站路478弄",
    "type": "小区",
    "lon": 121.307607,
    "lat": 31.06054
  },
  {
    "name": "松金公路9839弄",
    "type": "小区",
    "lon": 121.232307,
    "lat": 30.98294
  },
  {
    "name": "长兴路596弄",
    "type": "小区",
    "lon": 121.264707,
    "lat": 31.083508
  },
  {
    "name": "洞泾镇洞星小区",
    "type": "小区",
    "lon": 121.265105,
    "lat": 31.083707
  },
  {
    "name": "洞伟路6弄",
    "type": "小区",
    "lon": 121.257306,
    "lat": 31.094563
  },
  {
    "name": "泗泾青松村",
    "type": "小区",
    "lon": 121.239105,
    "lat": 31.119218
  },
  {
    "name": "季景北路236弄",
    "type": "小区",
    "lon": 121.580993,
    "lat": 31.343545
  },
  {
    "name": "浦东大道604弄",
    "type": "小区",
    "lon": 121.518294,
    "lat": 31.241887
  },
  {
    "name": "浦东大道834弄",
    "type": "小区",
    "lon": 121.527016,
    "lat": 31.240503
  },
  {
    "name": "浦东大道1695弄",
    "type": "小区",
    "lon": 121.539798,
    "lat": 31.248929
  },
  {
    "name": "浦东大道1851弄",
    "type": "小区",
    "lon": 121.542192,
    "lat": 31.249793
  },
  {
    "name": "东葛路425弄",
    "type": "小区",
    "lon": 121.568446,
    "lat": 31.295962
  },
  {
    "name": "浦东北路3759弄",
    "type": "小区",
    "lon": 121.564696,
    "lat": 31.334838
  },
  {
    "name": "高木桥路219弄",
    "type": "小区",
    "lon": 121.629194,
    "lat": 31.185377
  },
  {
    "name": "孙桥路238弄",
    "type": "小区",
    "lon": 121.626496,
    "lat": 31.184172
  },
  {
    "name": "荣城路17弄",
    "type": "小区",
    "lon": 121.513392,
    "lat": 31.242655
  },
  {
    "name": "招远路19弄",
    "type": "小区",
    "lon": 121.510388,
    "lat": 31.238562
  },
  {
    "name": "筑桥镇东北新村",
    "type": "小区",
    "lon": 121.759548,
    "lat": 31.118672
  },
  {
    "name": "东沟四村",
    "type": "小区",
    "lon": 121.569786,
    "lat": 31.291966
  },
  {
    "name": "惠南镇福汇二村",
    "type": "小区",
    "lon": 121.753591,
    "lat": 31.041623
  },
  {
    "name": "海防新村",
    "type": "小区",
    "lon": 121.548995,
    "lat": 31.250411
  },
  {
    "name": "劳动新村",
    "type": "小区",
    "lon": 121.463908,
    "lat": 31.138013
  },
  {
    "name": "崂山二村",
    "type": "小区",
    "lon": 121.515594,
    "lat": 31.238343
  },
  {
    "name": "崂山新村",
    "type": "小区",
    "lon": 121.51569,
    "lat": 31.240616
  },
  {
    "name": "崂山一村",
    "type": "小区",
    "lon": 121.51379,
    "lat": 31.241555
  },
  {
    "name": "梅园三村",
    "type": "小区",
    "lon": 121.518188,
    "lat": 31.241066
  },
  {
    "name": "梅园新村",
    "type": "小区",
    "lon": 121.518397,
    "lat": 31.239145
  },
  {
    "name": "农场三村",
    "type": "小区",
    "lon": 121.906456,
    "lat": 30.953368
  },
  {
    "name": "浦煤新村",
    "type": "小区",
    "lon": 121.570188,
    "lat": 31.294364
  },
  {
    "name": "上炼一村",
    "type": "小区",
    "lon": 121.566989,
    "lat": 31.337451
  },
  {
    "name": "天花庵村",
    "type": "小区",
    "lon": 121.524194,
    "lat": 31.126067
  },
  {
    "name": "听潮四村",
    "type": "小区",
    "lon": 121.739189,
    "lat": 31.049655
  },
  {
    "name": "镇滨一村",
    "type": "小区",
    "lon": 121.765091,
    "lat": 31.141036
  },
  {
    "name": "高行镇大陆村",
    "type": "村",
    "lon": 121.281098,
    "lat": 31.306435
  },
  {
    "name": "高桥镇东新村",
    "type": "村",
    "lon": 121.541539,
    "lat": 31.350412
  },
  {
    "name": "三林镇归泾村",
    "type": "村",
    "lon": 121.480823,
    "lat": 31.146193
  },
  {
    "name": "高东镇金光村",
    "type": "村",
    "lon": 121.616196,
    "lat": 31.336627
  },
  {
    "name": "金桥镇三桥村",
    "type": "村",
    "lon": 121.598896,
    "lat": 31.229985
  },
  {
    "name": "六灶镇汤店村",
    "type": "村",
    "lon": 121.718289,
    "lat": 31.124523
  },
  {
    "name": "川沙镇小湾村",
    "type": "村",
    "lon": 121.688898,
    "lat": 31.2339
  },
  {
    "name": "新凤北路449弄",
    "type": "小区",
    "lon": 121.219107,
    "lat": 31.247139
  },
  {
    "name": "新凤北路866弄",
    "type": "小区",
    "lon": 121.2188,
    "lat": 31.248365
  },
  {
    "name": "青松路479弄",
    "type": "小区",
    "lon": 121.113408,
    "lat": 31.138473
  },
  {
    "name": "纪秀路158弄",
    "type": "小区",
    "lon": 121.2493,
    "lat": 31.228171
  },
  {
    "name": "华益路820弄",
    "type": "小区",
    "lon": 121.227307,
    "lat": 31.255163
  },
  {
    "name": "明珠路465弄",
    "type": "小区",
    "lon": 121.2637,
    "lat": 31.173601
  },
  {
    "name": "城东新村",
    "type": "小区",
    "lon": 121.116598,
    "lat": 31.15781
  },
  {
    "name": "赵巷镇方夏村",
    "type": "村",
    "lon": 121.231307,
    "lat": 31.144188
  },
  {
    "name": "华新镇华益村",
    "type": "村",
    "lon": 121.233401,
    "lat": 31.257736
  },
  {
    "name": "华新镇马阳村",
    "type": "村",
    "lon": 121.197607,
    "lat": 31.251299
  },
  {
    "name": "华新镇秀龙村",
    "type": "村",
    "lon": 121.246668,
    "lat": 31.222494
  },
  {
    "name": "吴中路-漕宝路",
    "type": "地道",
    "lon": 121.397787,
    "lat": 31.163891
  },
  {
    "name": "闵行 沪青平公路中春路口往西方向 铁路桥下方地道内",
    "type": "地道",
    "lon": 121.3333,
    "lat": 31.173366
  },
  {
    "name": "沪闵路报春路 隧道（往莘庄方向）",
    "type": "地道",
    "lon": 121.391008,
    "lat": 31.127314
  },
  {
    "name": "昆阳路420弄",
    "type": "小区",
    "lon": 121.367999,
    "lat": 30.997724
  },
  {
    "name": "闵行 虹梅南路1301弄口地下通道内（积水有1米5左右深）",
    "type": "地道",
    "lon": 121.334107,
    "lat": 31.173763
  },
  {
    "name": "闵行 沪青平公路635弄29号",
    "type": "小区",
    "lon": 121.3378,
    "lat": 31.173235
  },
  {
    "name": "七莘路3885弄",
    "type": "小区",
    "lon": 121.335392,
    "lat": 31.170139
  },
  {
    "name": "华漕镇纪王村",
    "type": "村",
    "lon": 121.269276,
    "lat": 31.242426
  },
  {
    "name": "华漕镇许浦村",
    "type": "村",
    "lon": 121.334708,
    "lat": 31.233264
  },
  {
    "name": "闵行 纪王镇赵家村",
    "type": "村",
    "lon": 121.270836,
    "lat": 31.244169
  },
  {
    "name": "马桥镇友好村",
    "type": "村",
    "lon": 121.386407,
    "lat": 31.009444
  },
  {
    "name": "梅陇镇曹中村",
    "type": "村",
    "lon": 121.428107,
    "lat": 31.089096
  },
  {
    "name": "梅陇镇行南村",
    "type": "村",
    "lon": 121.425004,
    "lat": 31.116244
  },
  {
    "name": "浦江镇苏民村",
    "type": "村",
    "lon": 121.530392,
    "lat": 31.113716
  },
  {
    "name": "华漕镇陶家角村",
    "type": "村",
    "lon": 121.3244,
    "lat": 31.219418
  },
  {
    "name": "华漕镇杨家巷村",
    "type": "村",
    "lon": 121.311404,
    "lat": 31.182208
  },
  {
    "name": "共和新路2205弄",
    "type": "小区",
    "lon": 121.448701,
    "lat": 31.279092
  },
  {
    "name": "梅溪弄",
    "type": "小区",
    "lon": 121.488172,
    "lat": 31.220412
  },
  {
    "name": "大宁路181弄",
    "type": "小区",
    "lon": 121.453259,
    "lat": 31.277424
  },
  {
    "name": "广中西路99弄",
    "type": "小区",
    "lon": 121.445708,
    "lat": 31.281617
  },
  {
    "name": "粤秀路318弄",
    "type": "小区",
    "lon": 121.455305,
    "lat": 31.290403
  },
  {
    "name": "天水路191弄",
    "type": "小区",
    "lon": 121.485694,
    "lat": 31.263064
  },
  {
    "name": "场中路3300弄",
    "type": "小区",
    "lon": 121.429768,
    "lat": 31.304306
  },
  {
    "name": "真南路822弄",
    "type": "小区",
    "lon": 121.379305,
    "lat": 31.281807
  },
  {
    "name": "虹漕南路漕宝路杨家桥小区",
    "type": "小区",
    "lon": 121.407835,
    "lat": 31.164491
  },
  {
    "name": "西宝兴路949弄",
    "type": "小区",
    "lon": 121.465304,
    "lat": 31.273114
  },
  {
    "name": "广延路350弄",
    "type": "小区",
    "lon": 121.450801,
    "lat": 31.277704
  },
  {
    "name": "场中路3123弄",
    "type": "小区",
    "lon": 121.427204,
    "lat": 31.306921
  },
  {
    "name": "场中路3117弄",
    "type": "小区",
    "lon": 121.427005,
    "lat": 31.305568
  },
  {
    "name": "共和新路2103弄",
    "type": "小区",
    "lon": 121.448901,
    "lat": 31.277514
  },
  {
    "name": "武进路521弄",
    "type": "小区",
    "lon": 121.476988,
    "lat": 31.251864
  },
  {
    "name": "沙泾港路136弄",
    "type": "小区",
    "lon": 121.488392,
    "lat": 31.261639
  },
  {
    "name": "邯郸路524弄",
    "type": "小区",
    "lon": 121.508297,
    "lat": 31.301949
  },
  {
    "name": "大宁路505弄",
    "type": "小区",
    "lon": 121.444301,
    "lat": 31.277829
  },
  {
    "name": "茶陵路105弄",
    "type": "小区",
    "lon": 121.463498,
    "lat": 31.198245
  },
  {
    "name": "日晖二村",
    "type": "小区",
    "lon": 121.461704,
    "lat": 31.195755
  },
  {
    "name": "东安一村",
    "type": "小区",
    "lon": 121.452398,
    "lat": 31.192111
  },
  {
    "name": "溧阳路637弄",
    "type": "小区",
    "lon": 121.485997,
    "lat": 31.256877
  },
  {
    "name": "大连西路201弄",
    "type": "小区",
    "lon": 121.488291,
    "lat": 31.276494
  },
  {
    "name": "彭浦新村139号",
    "type": "小区",
    "lon": 121.446605,
    "lat": 31.311426
  },
  {
    "name": "贵阳路270弄",
    "type": "小区",
    "lon": 121.546592,
    "lat": 31.275531
  },
  {
    "name": "波阳路197弄",
    "type": "小区",
    "lon": 121.546392,
    "lat": 31.274945
  },
  {
    "name": "平凉路2272弄",
    "type": "小区",
    "lon": 121.545794,
    "lat": 31.275848
  },
  {
    "name": "平凉路2767-2804弄",
    "type": "小区",
    "lon": 121.552488,
    "lat": 31.280777
  },
  {
    "name": "金光村",
    "type": "小区",
    "lon": 121.382017,
    "lat": 31.291098
  },
  {
    "name": "梧州路199弄",
    "type": "小区",
    "lon": 121.488495,
    "lat": 31.256056
  },
  {
    "name": "宜川一村",
    "type": "小区",
    "lon": 121.436,
    "lat": 31.263
  },
  {
    "name": "甘泉一村",
    "type": "小区",
    "lon": 121.428,
    "lat": 31.265
  },
  {
    "name": "东安二村",
    "type": "小区",
    "lon": 121.451108,
    "lat": 31.190587
  },
  {
    "name": "天山五村",
    "type": "小区",
    "lon": 121.393607,
    "lat": 31.212936
  },
  {
    "name": "延吉东路557弄",
    "type": "小区",
    "lon": 121.535492,
    "lat": 31.289013
  },
  {
    "name": "吴淞路355弄",
    "type": "小区",
    "lon": 121.484096,
    "lat": 31.252278
  },
  {
    "name": "四平路621弄",
    "type": "小区",
    "lon": 121.490789,
    "lat": 31.273318
  },
  {
    "name": "海宁路404弄",
    "type": "小区",
    "lon": 121.480495,
    "lat": 31.252792
  },
  {
    "name": "四平路97弄",
    "type": "小区",
    "lon": 121.482197,
    "lat": 31.261297
  },
  {
    "name": "大连西路33号小区",
    "type": "小区",
    "lon": 121.493594,
    "lat": 31.277926
  },
  {
    "name": "彭浦新村158号",
    "type": "小区",
    "lon": 121.445408,
    "lat": 31.310848
  },
  {
    "name": "民和路65弄",
    "type": "小区",
    "lon": 121.460704,
    "lat": 31.269352
  },
  {
    "name": "东大名路737弄",
    "type": "小区",
    "lon": 121.497691,
    "lat": 31.252374
  },
  {
    "name": "北孔家弄16号",
    "type": "小区",
    "lon": 121.486661,
    "lat": 31.222892
  },
  {
    "name": "止园路240弄",
    "type": "小区",
    "lon": 121.465503,
    "lat": 31.258917
  },
  {
    "name": "武威路1082弄小区",
    "type": "小区",
    "lon": 121.3482,
    "lat": 31.28344
  },
  {
    "name": "高阳路241弄",
    "type": "小区",
    "lon": 121.496894,
    "lat": 31.254395
  },
  {
    "name": "绿杨路51弄",
    "type": "小区",
    "lon": 121.3433,
    "lat": 31.28579
  },
  {
    "name": "红柳路28-238号",
    "type": "小区",
    "lon": 121.3466,
    "lat": 31.29869
  },
  {
    "name": "华泾镇东湾村陆家塘8号",
    "type": "小区",
    "lon": 121.452605,
    "lat": 31.127415
  },
  {
    "name": "肇周路200弄",
    "type": "小区",
    "lon": 121.475745,
    "lat": 31.217536
  }
]